[{"sno":"f1","sname":"맥도날드","menu":"해피밀,빅맥","lat":37.50048681743639,"lng":127.02697413348},
  {"sno":"f1","sname":"KFC","menu":"트위스트버거,징거버거","lat":37.49908744100824,"lng":127.02607352680072},
  {"sno":"f1","sname":"맘스터치","menu":"싸이버거,휠렛버거","lat":37.50173454272977,"lng":127.0269211047066},
  {"sno":"f1","sname":"도미노피자","menu":"포테이토베이컨,치즈피자","lat":37.50142778278995,"lng":127.02355222206555},
  {"sno":"f1","sname":"롯데리아","menu":"오징어버거,한우불고기","lat":37.49906969057449,"lng":127.03061176722795},
  {"sno":"f1","sname":"BBQ","menu":"황금올리브,자메이카통닭","lat":37.492334517713694,"lng":127.03337712592759},
  {"sno":"f1","sname":"쉑쉑버거","menu":"스텍버거,스무디","lat":37.50283062769519,"lng":127.02583410970827}]